{
  "type": "FeatureCollection",
  "timestamp": "2025-11-22 12:11:28.415427",
  "features": [
    {
      "type": "Feature",
      "properties": {
        "@id": "node/10002975351",
        "name": "Rice Bar"
      },
      "geometry": {
        "type": "Point",
        "coordinates": [-77.003658, 38.907983]
      }
    },
    {
      "type": "Feature",
      "properties": {
        "@id": "node/10015788292",
        "name": "Milk & Honey Cafe",
        "addr:housenumber": "676"
      },
      "geometry": {
        "type": "Point",
        "coordinates": [-77.022317, 38.877942]
      }
    },
    {
      "type": "Feature",
      "properties": {
        "@id": "node/10015788293",
        "name": "Makers Union",
        "addr:housenumber": "664"
      },
      "geometry": {
        "type": "Point",
        "coordinates": [-77.022145, 38.877813]
      }
    },
    {
      "type": "Feature",
      "properties": {
        "@id": "node/10035147777",
        "name": "Tatte Bakery & Cafe",
        "addr:housenumber": "13"
      },
      "geometry": {
        "type": "Point",
        "coordinates": [-77.077958, 38.940916]
      }
    },
    {
      "type": "Feature",
      "properties": {
        "@id": "node/10049007917",
        "name": "Muchas Gracias"
      },
      "geometry": {
        "type": "Point",
        "coordinates": [-77.069979, 38.955736]
      }
    },
    {
      "type": "Feature",
      "properties": {
        "@id": "node/10093737921",
        "name": "Piccolina",
        "addr:housenumber": "963"
      },
      "geometry": {
        "type": "Point",
        "coordinates": [-77.02543, 38.900418]
      }
    },
    {
      "type": "Feature",
      "properties": {
        "@id": "node/10093744706",
        "name": "Dolcezza",
        "addr:housenumber": "904"
      },
      "geometry": {
        "type": "Point",
        "coordinates": [-77.024182, 38.900243]
      }
    },
    {
      "type": "Feature",
      "properties": {
        "@id": "node/10112475916",
        "name": "L'Ardente",
        "addr:housenumber": "200"
      },
      "geometry": {
        "type": "Point",
        "coordinates": [-77.014152, 38.89915]
      }
    },
    {
      "type": "Feature",
      "properties": {
        "@id": "node/10186668999",
        "name": "True Burger"
      },
      "geometry": {
        "type": "Point",
        "coordinates": [-77.047678, 38.900366]
      }
    },
    {
      "type": "Feature",
      "properties": {
        "@id": "node/10186669000",
        "name": "DC Taco House"
      },
      "geometry": {
        "type": "Point",
        "coordinates": [-77.047674, 38.900057]
      }
    },
    {
      "type": "Feature",
      "properties": {
        "@id": "node/10186669002",
        "name": "The Halal Shack"
      },
      "geometry": {
        "type": "Point",
        "coordinates": [-77.047678, 38.900274]
      }
    },
    {
      "type": "Feature",
      "properties": {
        "@id": "node/10186669003",
        "name": "Baba's Pizza"
      },
      "geometry": {
        "type": "Point",
        "coordinates": [-77.047671, 38.899955]
      }
    },
    {
      "type": "Feature",
      "properties": {
        "@id": "node/1020922828",
        "name": "Sonoma Restaurant and Wine Bar",
        "addr:housenumber": "223"
      },
      "geometry": {
        "type": "Point",
        "coordinates": [-77.002639, 38.887006]
      }
    },
    {
      "type": "Feature",
      "properties": {
        "@id": "node/10211066632",
        "name": "In Bocca al Lupo",
        "addr:housenumber": "2400"
      },
      "geometry": {
        "type": "Point",
        "coordinates": [-77.07236, 38.921181]
      }
    },
    {
      "type": "Feature",
      "properties": {
        "@id": "node/10223921342",
        "name": "Jojo's Brick Oven Pizzeria"
      },
      "geometry": {
        "type": "Point",
        "coordinates": [-77.024317, 38.917139]
      }
    },
    {
      "type": "Feature",
      "properties": {
        "@id": "node/10223950015",
        "name": "Last Call",
        "addr:housenumber": "1301"
      },
      "geometry": {
        "type": "Point",
        "coordinates": [-76.998682, 38.909018]
      }
    },
    {
      "type": "Feature",
      "properties": {
        "@id": "node/10224486868",
        "name": "Butter Chicken Company 3",
        "addr:housenumber": "601"
      },
      "geometry": {
        "type": "Point",
        "coordinates": [-77.003323, 38.897497]
      }
    },
    {
      "type": "Feature",
      "properties": {
        "@id": "node/10231074737",
        "name": "Silver Diner",
        "addr:housenumber": "1250"
      },
      "geometry": {
        "type": "Point",
        "coordinates": [-77.007268, 38.874834]
      }
    },
    {
      "type": "Feature",
      "properties": {
        "@id": "node/10231074738",
        "name": "Silver Social",
        "addr:housenumber": "1250"
      },
      "geometry": {
        "type": "Point",
        "coordinates": [-77.007213, 38.874886]
      }
    },
    {
      "type": "Feature",
      "properties": {
        "@id": "node/10233018517",
        "name": "Sweet Lemon Cafe",
        "addr:housenumber": "201"
      },
      "geometry": {
        "type": "Point",
        "coordinates": [-77.003321, 38.89461]
      }
    },
    {
      "type": "Feature",
      "properties": {
        "@id": "node/10250734017",
        "name": "Calico",
        "addr:housenumber": "50"
      },
      "geometry": {
        "type": "Point",
        "coordinates": [-77.025186, 38.906205]
      }
    },
    {
      "type": "Feature",
      "properties": {
        "@id": "node/10251747187",
        "name": "Café Riggs"
      },
      "geometry": {
        "type": "Point",
        "coordinates": [-77.024296, 38.898742]
      }
    },
    {
      "type": "Feature",
      "properties": {
        "@id": "node/10262748713",
        "name": "Play DC",
        "addr:housenumber": "1541"
      },
      "geometry": {
        "type": "Point",
        "coordinates": [-77.021719, 38.910778]
      }
    },
    {
      "type": "Feature",
      "properties": {
        "@id": "node/10266614035",
        "name": "LebTav",
        "addr:housenumber": "888"
      },
      "geometry": {
        "type": "Point",
        "coordinates": [-77.039695, 38.901045]
      }
    },
    {
      "type": "Feature",
      "properties": {
        "@id": "node/10268199328",
        "name": "Pop Fizz Bar",
        "addr:housenumber": "2108"
      },
      "geometry": {
        "type": "Point",
        "coordinates": [-77.024757, 38.918452]
      }
    },
    {
      "type": "Feature",
      "properties": {
        "@id": "node/10299608138",
        "name": "Il Supremo"
      },
      "geometry": {
        "type": "Point",
        "coordinates": [-77.06544, 38.946955]
      }
    },
    {
      "type": "Feature",
      "properties": {
        "@id": "node/10305036999",
        "name": "Golden Flour"
      },
      "geometry": {
        "type": "Point",
        "coordinates": [-77.019606, 38.956607]
      }
    },
    {
      "type": "Feature",
      "properties": {
        "@id": "node/10305162326",
        "name": "Thaiverse"
      },
      "geometry": {
        "type": "Point",
        "coordinates": [-77.045082, 38.911644]
      }
    },
    {
      "type": "Feature",
      "properties": {
        "@id": "node/10311474601",
        "name": "Bombay Street Food 2",
        "addr:housenumber": "524"
      },
      "geometry": {
        "type": "Point",
        "coordinates": [-76.994763, 38.881843]
      }
    },
    {
      "type": "Feature",
      "properties": {
        "@id": "node/10439113448",
        "name": "Starbucks",
        "addr:housenumber": "3416"
      },
      "geometry": {
        "type": "Point",
        "coordinates": [-77.072896, 38.934388]
      }
    },
    {
      "type": "Feature",
      "properties": {
        "@id": "node/10537088507",
        "name": "Grazie Grazie",
        "addr:housenumber": "1875"
      },
      "geometry": {
        "type": "Point",
        "coordinates": [-77.043209, 38.903057]
      }
    },
    {
      "type": "Feature",
      "properties": {
        "@id": "node/10537539116",
        "name": "Beuchert's Saloon",
        "addr:housenumber": "723"
      },
      "geometry": {
        "type": "Point",
        "coordinates": [-76.997577, 38.884972]
      }
    },
    {
      "type": "Feature",
      "properties": {
        "@id": "node/10537952332",
        "name": "Royal Sands Social Club",
        "addr:housenumber": "26"
      },
      "geometry": {
        "type": "Point",
        "coordinates": [-77.008032, 38.874856]
      }
    },
    {
      "type": "Feature",
      "properties": {
        "@id": "node/10539956351",
        "name": "Sushi Capitol"
      },
      "geometry": {
        "type": "Point",
        "coordinates": [-77.00123, 38.886447]
      }
    },
    {
      "type": "Feature",
      "properties": {
        "@id": "node/10539956352",
        "name": "Butterworth's"
      },
      "geometry": {
        "type": "Point",
        "coordinates": [-77.001357, 38.886494]
      }
    },
    {
      "type": "Feature",
      "properties": {
        "@id": "node/10563030593",
        "name": "Banana Blossom Bistro"
      },
      "geometry": {
        "type": "Point",
        "coordinates": [-76.997093, 38.908521]
      }
    },
    {
      "type": "Feature",
      "properties": {
        "@id": "node/10563727909",
        "name": "Solace Outpost Navy Yard",
        "addr:housenumber": "71"
      },
      "geometry": {
        "type": "Point",
        "coordinates": [-77.007083, 38.870484]
      }
    },
    {
      "type": "Feature",
      "properties": {
        "@id": "node/10566953217",
        "name": "Tatte Bakery & Cafe",
        "addr:housenumber": "1090"
      },
      "geometry": {
        "type": "Point",
        "coordinates": [-77.026772, 38.900695]
      }
    },
    {
      "type": "Feature",
      "properties": {
        "@id": "node/10570664499",
        "name": "Colada Shop"
      },
      "geometry": {
        "type": "Point",
        "coordinates": [-77.043872, 38.907073]
      }
    },
    {
      "type": "Feature",
      "properties": {
        "@id": "node/10579918890",
        "name": "Oh Mama Grill",
        "addr:housenumber": "1829"
      },
      "geometry": {
        "type": "Point",
        "coordinates": [-77.043728, 38.921724]
      }
    },
    {
      "type": "Feature",
      "properties": {
        "@id": "node/10594328317",
        "name": "La Casina",
        "addr:housenumber": "327"
      },
      "geometry": {
        "type": "Point",
        "coordinates": [-76.996372, 38.885336]
      }
    },
    {
      "type": "Feature",
      "properties": {
        "@id": "node/10594339994",
        "name": "Pintxo's Tacos"
      },
      "geometry": {
        "type": "Point",
        "coordinates": [-77.025763, 38.927065]
      }
    },
    {
      "type": "Feature",
      "properties": {
        "@id": "node/10594604260",
        "name": "Flirt Cocktail Bar and Social Club",
        "addr:housenumber": "1015 1/2"
      },
      "geometry": {
        "type": "Point",
        "coordinates": [-77.021713, 38.903503]
      }
    },
    {
      "type": "Feature",
      "properties": {
        "@id": "node/10594663500",
        "name": "DC Tasty Corner"
      },
      "geometry": {
        "type": "Point",
        "coordinates": [-77.062995, 38.907723]
      }
    },
    {
      "type": "Feature",
      "properties": {
        "@id": "node/10594711379",
        "name": "Aura Bar and Lounge",
        "addr:housenumber": "5247"
      },
      "geometry": {
        "type": "Point",
        "coordinates": [-77.084405, 38.958846]
      }
    },
    {
      "type": "Feature",
      "properties": {
        "@id": "node/10594784537",
        "name": "Emissary To-Go"
      },
      "geometry": {
        "type": "Point",
        "coordinates": [-77.046244, 38.90979]
      }
    },
    {
      "type": "Feature",
      "properties": {
        "@id": "node/10594798512",
        "name": "D Light"
      },
      "geometry": {
        "type": "Point",
        "coordinates": [-77.042377, 38.922364]
      }
    },
    {
      "type": "Feature",
      "properties": {
        "@id": "node/10605209553",
        "name": "Tatte Bakery & Cafe",
        "addr:housenumber": "250"
      },
      "geometry": {
        "type": "Point",
        "coordinates": [-77.014774, 38.899383]
      }
    },
    {
      "type": "Feature",
      "properties": {
        "@id": "node/10605209554",
        "name": "Tatte Bakery & Cafe"
      },
      "geometry": {
        "type": "Point",
        "coordinates": [-77.04776, 38.900871]
      }
    },
    {
      "type": "Feature",
      "properties": {
        "@id": "node/10607178885",
        "name": "Krispy Kreme",
        "addr:housenumber": "3100"
      },
      "geometry": {
        "type": "Point",
        "coordinates": [-77.032841, 38.929029]
      }
    },
    {
      "type": "Feature",
      "properties": {
        "@id": "node/10607950605",
        "name": "Mariscos 1133",
        "addr:housenumber": "1133"
      },
      "geometry": {
        "type": "Point",
        "coordinates": [-77.026805, 38.905514]
      }
    },
    {
      "type": "Feature",
      "properties": {
        "@id": "node/10636526671",
        "name": "The Point DC",
        "addr:housenumber": "2100"
      },
      "geometry": {
        "type": "Point",
        "coordinates": [-77.013379, 38.863763]
      }
    },
    {
      "type": "Feature",
      "properties": {
        "@id": "node/10650342570",
        "name": "Isla",
        "addr:housenumber": "1100"
      },
      "geometry": {
        "type": "Point",
        "coordinates": [-77.034955, 38.903992]
      }
    },
    {
      "type": "Feature",
      "properties": {
        "@id": "node/10650342571",
        "name": "Dauphine’s",
        "addr:housenumber": "1100"
      },
      "geometry": {
        "type": "Point",
        "coordinates": [-77.034977, 38.904518]
      }
    },
    {
      "type": "Feature",
      "properties": {
        "@id": "node/10650342572",
        "name": "Grazie Nonna",
        "addr:housenumber": "1100"
      },
      "geometry": {
        "type": "Point",
        "coordinates": [-77.03558, 38.904535]
      }
    },
    {
      "type": "Feature",
      "properties": {
        "@id": "node/10650342573",
        "name": "Shōtō",
        "addr:housenumber": "1100"
      },
      "geometry": {
        "type": "Point",
        "coordinates": [-77.035631, 38.903988]
      }
    },
    {
      "type": "Feature",
      "properties": {
        "@id": "node/10655306357",
        "name": "Present Company Public House",
        "addr:housenumber": "438"
      },
      "geometry": {
        "type": "Point",
        "coordinates": [-77.017269, 38.900229]
      }
    },
    {
      "type": "Feature",
      "properties": {
        "@id": "node/10655309969",
        "name": "Stellina Pizzeria"
      },
      "geometry": {
        "type": "Point",
        "coordinates": [-77.019516, 38.902295]
      }
    },
    {
      "type": "Feature",
      "properties": {
        "@id": "node/1065887591",
        "name": "Cactus Cantina",
        "addr:housenumber": "3300"
      },
      "geometry": {
        "type": "Point",
        "coordinates": [-77.07271, 38.933698]
      }
    },
    {
      "type": "Feature",
      "properties": {
        "@id": "node/1065890982",
        "name": "Barcelona Wine Bar",
        "addr:housenumber": "3310"
      },
      "geometry": {
        "type": "Point",
        "coordinates": [-77.072692, 38.93385]
      }
    },
    {
      "type": "Feature",
      "properties": {
        "@id": "node/1065927167",
        "name": "La Piquette",
        "addr:housenumber": "3714"
      },
      "geometry": {
        "type": "Point",
        "coordinates": [-77.0731, 38.93334]
      }
    },
    {
      "type": "Feature",
      "properties": {
        "@id": "node/1065935245",
        "name": "Heritage India",
        "addr:housenumber": "3238"
      },
      "geometry": {
        "type": "Point",
        "coordinates": [-77.072729, 38.933304]
      }
    },
    {
      "type": "Feature",
      "properties": {
        "@id": "node/1066037564",
        "name": "Byblos Deli",
        "addr:housenumber": "3414"
      },
      "geometry": {
        "type": "Point",
        "coordinates": [-77.058303, 38.934647]
      }
    },
    {
      "type": "Feature",
      "properties": {
        "@id": "node/1066046909",
        "name": "Chipotle",
        "addr:housenumber": "3420"
      },
      "geometry": {
        "type": "Point",
        "coordinates": [-77.058434, 38.934766]
      }
    },
    {
      "type": "Feature",
      "properties": {
        "@id": "node/1066788789",
        "name": "Planet Smoothie",
        "addr:housenumber": "3501"
      },
      "geometry": {
        "type": "Point",
        "coordinates": [-77.057955, 38.935734]
      }
    },
    {
      "type": "Feature",
      "properties": {
        "@id": "node/1066856899",
        "name": "Turning Natural",
        "addr:housenumber": "6837"
      },
      "geometry": {
        "type": "Point",
        "coordinates": [-77.017826, 38.973465]
      }
    },
    {
      "type": "Feature",
      "properties": {
        "@id": "node/1066861256",
        "name": "Lost Sock",
        "addr:housenumber": "6829"
      },
      "geometry": {
        "type": "Point",
        "coordinates": [-77.017828, 38.97331]
      }
    },
    {
      "type": "Feature",
      "properties": {
        "@id": "node/1066861990",
        "name": "El Sabor a Mexico",
        "addr:housenumber": "353"
      },
      "geometry": {
        "type": "Point",
        "coordinates": [-77.018248, 38.974887]
      }
    },
    {
      "type": "Feature",
      "properties": {
        "@id": "node/10671566228",
        "name": "Maman"
      },
      "geometry": {
        "type": "Point",
        "coordinates": [-77.063476, 38.907975]
      }
    },
    {
      "type": "Feature",
      "properties": {
        "@id": "node/10673662108",
        "name": "Floriana"
      },
      "geometry": {
        "type": "Point",
        "coordinates": [-77.038713, 38.911284]
      }
    },
    {
      "type": "Feature",
      "properties": {
        "@id": "node/10673662109",
        "name": "Au Lait"
      },
      "geometry": {
        "type": "Point",
        "coordinates": [-77.038731, 38.911503]
      }
    },
    {
      "type": "Feature",
      "properties": {
        "@id": "node/10673869509",
        "name": "The Bazaar"
      },
      "geometry": {
        "type": "Point",
        "coordinates": [-77.027521, 38.893972]
      }
    },
    {
      "type": "Feature",
      "properties": {
        "@id": "node/10674357777",
        "name": "Crimson",
        "addr:housenumber": "627"
      },
      "geometry": {
        "type": "Point",
        "coordinates": [-77.021249, 38.899951]
      }
    },
    {
      "type": "Feature",
      "properties": {
        "@id": "node/10674918961",
        "name": "Potbelly",
        "addr:housenumber": "1200"
      },
      "geometry": {
        "type": "Point",
        "coordinates": [-77.047903, 38.905421]
      }
    },
    {
      "type": "Feature",
      "properties": {
        "@id": "node/10677378789",
        "name": "Gatsby",
        "addr:housenumber": "1201"
      },
      "geometry": {
        "type": "Point",
        "coordinates": [-77.007634, 38.874796]
      }
    },
    {
      "type": "Feature",
      "properties": {
        "@id": "node/1067837942",
        "name": "El Dorado Bread",
        "addr:housenumber": "6209"
      },
      "geometry": {
        "type": "Point",
        "coordinates": [-77.027263, 38.96541]
      }
    },
    {
      "type": "Feature",
      "properties": {
        "@id": "node/1067838903",
        "name": "China Taste Carryout",
        "addr:housenumber": "6215"
      },
      "geometry": {
        "type": "Point",
        "coordinates": [-77.027455, 38.965575]
      }
    },
    {
      "type": "Feature",
      "properties": {
        "@id": "node/10683734444",
        "name": "Taim"
      },
      "geometry": {
        "type": "Point",
        "coordinates": [-77.044237, 38.910484]
      }
    },
    {
      "type": "Feature",
      "properties": {
        "@id": "node/10684040238",
        "name": "Kitchen Savages",
        "addr:housenumber": "1211"
      },
      "geometry": {
        "type": "Point",
        "coordinates": [-76.988265, 38.867232]
      }
    },
    {
      "type": "Feature",
      "properties": {
        "@id": "node/10686154057",
        "name": "Public Bar",
        "addr:housenumber": "1214"
      },
      "geometry": {
        "type": "Point",
        "coordinates": [-77.042086, 38.906281]
      }
    },
    {
      "type": "Feature",
      "properties": {
        "@id": "node/10686316368",
        "name": "Sweetgreen"
      },
      "geometry": {
        "type": "Point",
        "coordinates": [-77.044214, 38.910439]
      }
    },
    {
      "type": "Feature",
      "properties": {
        "@id": "node/10686316369",
        "name": "Bibibop"
      },
      "geometry": {
        "type": "Point",
        "coordinates": [-77.044256, 38.910529]
      }
    },
    {
      "type": "Feature",
      "properties": {
        "@id": "node/10686656288",
        "name": "Cuban Espresso"
      },
      "geometry": {
        "type": "Point",
        "coordinates": [-77.0325, 38.925275]
      }
    },
    {
      "type": "Feature",
      "properties": {
        "@id": "node/10687062244",
        "name": "The Little Grand",
        "addr:housenumber": "808"
      },
      "geometry": {
        "type": "Point",
        "coordinates": [-76.996706, 38.900586]
      }
    },
    {
      "type": "Feature",
      "properties": {
        "@id": "node/10688677317",
        "name": "Mola Empanada"
      },
      "geometry": {
        "type": "Point",
        "coordinates": [-77.042565, 38.921643]
      }
    },
    {
      "type": "Feature",
      "properties": {
        "@id": "node/10692191406",
        "name": "Cafe Divan",
        "addr:housenumber": "1834"
      },
      "geometry": {
        "type": "Point",
        "coordinates": [-77.067793, 38.915475]
      }
    },
    {
      "type": "Feature",
      "properties": {
        "@id": "node/10700665014",
        "name": "Trouble Bird"
      },
      "geometry": {
        "type": "Point",
        "coordinates": [-77.00035, 38.874275]
      }
    },
    {
      "type": "Feature",
      "properties": {
        "@id": "node/10707336390",
        "name": "Del Frisco's Double Eagle Steakhouse",
        "addr:housenumber": "950"
      },
      "geometry": {
        "type": "Point",
        "coordinates": [-77.024776, 38.900746]
      }
    },
    {
      "type": "Feature",
      "properties": {
        "@id": "node/10712848046",
        "name": "Dave's Hot Chicken",
        "addr:housenumber": "3301"
      },
      "geometry": {
        "type": "Point",
        "coordinates": [-77.032479, 38.930573]
      }
    },
    {
      "type": "Feature",
      "properties": {
        "@id": "node/10713342151",
        "name": "Dumplings and Beyond"
      },
      "geometry": {
        "type": "Point",
        "coordinates": [-77.072343, 38.921243]
      }
    },
    {
      "type": "Feature",
      "properties": {
        "@id": "node/10717507083",
        "name": "Ambar",
        "addr:housenumber": "1547"
      },
      "geometry": {
        "type": "Point",
        "coordinates": [-77.021745, 38.910982]
      }
    },
    {
      "type": "Feature",
      "properties": {
        "@id": "node/10717552276",
        "name": "Crooked Run Fermentation",
        "addr:housenumber": "550"
      },
      "geometry": {
        "type": "Point",
        "coordinates": [-76.998049, 38.907237]
      }
    },
    {
      "type": "Feature",
      "properties": {
        "@id": "node/10726989505",
        "name": "90 Second Pizza"
      },
      "geometry": {
        "type": "Point",
        "coordinates": [-77.062636, 38.904776]
      }
    },
    {
      "type": "Feature",
      "properties": {
        "@id": "node/10728689905",
        "name": "PLNT Burger"
      },
      "geometry": {
        "type": "Point",
        "coordinates": [-77.024744, 38.919675]
      }
    },
    {
      "type": "Feature",
      "properties": {
        "@id": "node/10764884343",
        "name": "Twisted"
      },
      "geometry": {
        "type": "Point",
        "coordinates": [-77.027962, 38.881532]
      }
    },
    {
      "type": "Feature",
      "properties": {
        "@id": "node/10802578840",
        "name": "Immigrant Food",
        "addr:housenumber": "1701"
      },
      "geometry": {
        "type": "Point",
        "coordinates": [-77.040078, 38.899282]
      }
    },
    {
      "type": "Feature",
      "properties": {
        "@id": "node/10815280379",
        "name": "Moe's Southwest Grill",
        "addr:housenumber": "1275"
      },
      "geometry": {
        "type": "Point",
        "coordinates": [-77.005306, 38.907079]
      }
    },
    {
      "type": "Feature",
      "properties": {
        "@id": "node/10815345273",
        "name": "Seoul Spice",
        "addr:housenumber": "145"
      },
      "geometry": {
        "type": "Point",
        "coordinates": [-77.004993, 38.907108]
      }
    },
    {
      "type": "Feature",
      "properties": {
        "@id": "node/10815347948",
        "name": "Dunkin'",
        "addr:housenumber": "175"
      },
      "geometry": {
        "type": "Point",
        "coordinates": [-77.004172, 38.907116]
      }
    },
    {
      "type": "Feature",
      "properties": {
        "@id": "node/10820301784",
        "name": "Joe & The Juice",
        "addr:housenumber": "1500"
      },
      "geometry": {
        "type": "Point",
        "coordinates": [-77.034797, 38.902294]
      }
    },
    {
      "type": "Feature",
      "properties": {
        "@id": "node/10820330624",
        "name": "Butter Chicken Company",
        "addr:housenumber": "1717"
      },
      "geometry": {
        "type": "Point",
        "coordinates": [-77.040153, 38.899313]
      }
    },
    {
      "type": "Feature",
      "properties": {
        "@id": "node/10822447045",
        "name": "Ching Ching Cha",
        "addr:housenumber": "1314"
      },
      "geometry": {
        "type": "Point",
        "coordinates": [-77.046814, 38.907809]
      }
    },
    {
      "type": "Feature",
      "properties": {
        "@id": "node/10876404056",
        "name": "Dig",
        "addr:housenumber": "1301"
      },
      "geometry": {
        "type": "Point",
        "coordinates": [-77.062938, 38.906916]
      }
    },
    {
      "type": "Feature",
      "properties": {
        "@id": "node/10897683905",
        "name": "Karma Modern Indian",
        "addr:housenumber": "611"
      },
      "geometry": {
        "type": "Point",
        "coordinates": [-77.020818, 38.901039]
      }
    },
    {
      "type": "Feature",
      "properties": {
        "@id": "node/10942460046",
        "name": "Call Your Mother Deli",
        "addr:housenumber": "1143"
      },
      "geometry": {
        "type": "Point",
        "coordinates": [-77.047433, 38.905042]
      }
    },
    {
      "type": "Feature",
      "properties": {
        "@id": "node/10942461438",
        "name": "Mercy Me",
        "addr:housenumber": "1143"
      },
      "geometry": {
        "type": "Point",
        "coordinates": [-77.047482, 38.904951]
      }
    },
    {
      "type": "Feature",
      "properties": {
        "@id": "node/10964022048",
        "name": "Dunkin'",
        "addr:housenumber": "50"
      },
      "geometry": {
        "type": "Point",
        "coordinates": [-77.00703, 38.897862]
      }
    },
    {
      "type": "Feature",
      "properties": {
        "@id": "node/10974128149",
        "name": "Seoul Spice"
      },
      "geometry": {
        "type": "Point",
        "coordinates": [-77.021723, 38.895904]
      }
    },
    {
      "type": "Feature",
      "properties": {
        "@id": "node/10974868464",
        "name": "Mí Vida"
      },
      "geometry": {
        "type": "Point",
        "coordinates": [-77.021735, 38.897128]
      }
    },
    {
      "type": "Feature",
      "properties": {
        "@id": "node/10975484893",
        "name": "Hoja Taqueria",
        "addr:housenumber": "1900"
      },
      "geometry": {
        "type": "Point",
        "coordinates": [-77.046681, 38.916044]
      }
    },
    {
      "type": "Feature",
      "properties": {
        "@id": "node/10975484894",
        "name": "Café Integral"
      },
      "geometry": {
        "type": "Point",
        "coordinates": [-77.046706, 38.915952]
      }
    },
    {
      "type": "Feature",
      "properties": {
        "@id": "node/10984600935",
        "name": "Chipotle",
        "addr:housenumber": "2430"
      },
      "geometry": {
        "type": "Point",
        "coordinates": [-76.953145, 38.920087]
      }
    },
    {
      "type": "Feature",
      "properties": {
        "@id": "node/11016777052",
        "name": "The Fox Den",
        "addr:housenumber": "3825"
      },
      "geometry": {
        "type": "Point",
        "coordinates": [-77.073984, 38.940946]
      }
    },
    {
      "type": "Feature",
      "properties": {
        "@id": "node/11018757664",
        "name": "Kayu",
        "addr:housenumber": "1633"
      },
      "geometry": {
        "type": "Point",
        "coordinates": [-77.038264, 38.912269]
      }
    },
    {
      "type": "Feature",
      "properties": {
        "@id": "node/11038073146",
        "name": "Tatte",
        "addr:housenumber": "1400"
      },
      "geometry": {
        "type": "Point",
        "coordinates": [-77.032209, 38.919041]
      }
    },
    {
      "type": "Feature",
      "properties": {
        "@id": "node/11038169120",
        "name": "Mi Vida"
      },
      "geometry": {
        "type": "Point",
        "coordinates": [-77.0317, 38.915749]
      }
    },
    {
      "type": "Feature",
      "properties": {
        "@id": "node/11038169165",
        "name": "Jane Jane"
      },
      "geometry": {
        "type": "Point",
        "coordinates": [-77.031728, 38.912857]
      }
    },
    {
      "type": "Feature",
      "properties": {
        "@id": "node/11039766259",
        "name": "Kaliwa"
      },
      "geometry": {
        "type": "Point",
        "coordinates": [-77.02438, 38.878733]
      }
    },
    {
      "type": "Feature",
      "properties": {
        "@id": "node/11039766268",
        "name": "Easy Company Wine Bar"
      },
      "geometry": {
        "type": "Point",
        "coordinates": [-77.02666, 38.88057]
      }
    },
    {
      "type": "Feature",
      "properties": {
        "@id": "node/11039766279",
        "name": "Fat Fish"
      },
      "geometry": {
        "type": "Point",
        "coordinates": [-77.026833, 38.881159]
      }
    },
    {
      "type": "Feature",
      "properties": {
        "@id": "node/11039766280",
        "name": "Boardwalk Bar"
      },
      "geometry": {
        "type": "Point",
        "coordinates": [-77.023932, 38.878404]
      }
    },
    {
      "type": "Feature",
      "properties": {
        "@id": "node/11048691550",
        "name": "Boquería Penn Quarter",
        "addr:housenumber": "777"
      },
      "geometry": {
        "type": "Point",
        "coordinates": [-77.023718, 38.899587]
      }
    },
    {
      "type": "Feature",
      "properties": {
        "@id": "node/11054948481",
        "name": "La Vie",
        "addr:housenumber": "88"
      },
      "geometry": {
        "type": "Point",
        "coordinates": [-77.025671, 38.87995]
      }
    },
    {
      "type": "Feature",
      "properties": {
        "@id": "node/11054948483",
        "name": "NaRa-Ya",
        "addr:housenumber": "88"
      },
      "geometry": {
        "type": "Point",
        "coordinates": [-77.025629, 38.879978]
      }
    },
    {
      "type": "Feature",
      "properties": {
        "@id": "node/11054948489",
        "name": "eTea",
        "addr:housenumber": "49"
      },
      "geometry": {
        "type": "Point",
        "coordinates": [-77.02511, 38.879848]
      }
    },
    {
      "type": "Feature",
      "properties": {
        "@id": "node/11054957218",
        "name": "Kaliwa Kiosk1"
      },
      "geometry": {
        "type": "Point",
        "coordinates": [-77.024564, 38.878635]
      }
    },
    {
      "type": "Feature",
      "properties": {
        "@id": "node/11054957220",
        "name": "Kirwan's Kiosk"
      },
      "geometry": {
        "type": "Point",
        "coordinates": [-77.024411, 38.878516]
      }
    },
    {
      "type": "Feature",
      "properties": {
        "@id": "node/11055737805",
        "name": "Tia Pepa"
      },
      "geometry": {
        "type": "Point",
        "coordinates": [-77.041512, 38.900635]
      }
    },
    {
      "type": "Feature",
      "properties": {
        "@id": "node/11065544493",
        "name": "Blank Street Coffee",
        "addr:housenumber": "2121"
      },
      "geometry": {
        "type": "Point",
        "coordinates": [-77.04809, 38.90542]
      }
    },
    {
      "type": "Feature",
      "properties": {
        "@id": "node/11065652230",
        "name": "Nobu",
        "addr:housenumber": "2525"
      },
      "geometry": {
        "type": "Point",
        "coordinates": [-77.0541, 38.905423]
      }
    },
    {
      "type": "Feature",
      "properties": {
        "@id": "node/11070091905",
        "name": "Other Half Brewing"
      },
      "geometry": {
        "type": "Point",
        "coordinates": [-76.983927, 38.914093]
      }
    },
    {
      "type": "Feature",
      "properties": {
        "@id": "node/11074574097",
        "name": "54 Restaurant",
        "addr:housenumber": "1201"
      },
      "geometry": {
        "type": "Point",
        "coordinates": [-77.028485, 38.895946]
      }
    },
    {
      "type": "Feature",
      "properties": {
        "@id": "node/11115409505",
        "name": "Lucha Rosa Rooftop Bar",
        "addr:housenumber": "1011"
      },
      "geometry": {
        "type": "Point",
        "coordinates": [-77.026644, 38.90276]
      }
    },
    {
      "type": "Feature",
      "properties": {
        "@id": "node/11117376071",
        "name": "Little Miner Taco",
        "addr:housenumber": "1110"
      },
      "geometry": {
        "type": "Point",
        "coordinates": [-77.002891, 38.904116]
      }
    },
    {
      "type": "Feature",
      "properties": {
        "@id": "node/11137503405",
        "name": "Causa",
        "addr:housenumber": "920"
      },
      "geometry": {
        "type": "Point",
        "coordinates": [-77.024751, 38.906553]
      }
    },
    {
      "type": "Feature",
      "properties": {
        "@id": "node/11137505505",
        "name": "Amazonia",
        "addr:housenumber": "920"
      },
      "geometry": {
        "type": "Point",
        "coordinates": [-77.024747, 38.906575]
      }
    },
    {
      "type": "Feature",
      "properties": {
        "@id": "node/11137520105",
        "name": "Yardbird",
        "addr:housenumber": "901"
      },
      "geometry": {
        "type": "Point",
        "coordinates": [-77.024548, 38.902257]
      }
    },
    {
      "type": "Feature",
      "properties": {
        "@id": "node/11137528405",
        "name": "Rumi’s Kitchen",
        "addr:housenumber": "640"
      },
      "geometry": {
        "type": "Point",
        "coordinates": [-77.020809, 38.904013]
      }
    },
    {
      "type": "Feature",
      "properties": {
        "@id": "node/11142548629",
        "name": "The Delegate",
        "addr:housenumber": "901"
      },
      "geometry": {
        "type": "Point",
        "coordinates": [-77.024154, 38.904337]
      }
    },
    {
      "type": "Feature",
      "properties": {
        "@id": "node/11147140677",
        "name": "The Little Gay Pub",
        "addr:housenumber": "1100"
      },
      "geometry": {
        "type": "Point",
        "coordinates": [-77.027294, 38.909517]
      }
    },
    {
      "type": "Feature",
      "properties": {
        "@id": "node/11147159010",
        "name": "Nina May",
        "addr:housenumber": "1337"
      },
      "geometry": {
        "type": "Point",
        "coordinates": [-77.026789, 38.908416]
      }
    },
    {
      "type": "Feature",
      "properties": {
        "@id": "node/11147312605",
        "name": "San Lorenzo",
        "addr:housenumber": "1316"
      },
      "geometry": {
        "type": "Point",
        "coordinates": [-77.024138, 38.90785]
      }
    },
    {
      "type": "Feature",
      "properties": {
        "@id": "node/11148857105",
        "name": "Eighteenth Street Lounge (ESL)",
        "addr:housenumber": "1230"
      },
      "geometry": {
        "type": "Point",
        "coordinates": [-77.02413, 38.906503]
      }
    },
    {
      "type": "Feature",
      "properties": {
        "@id": "node/11148862805",
        "name": "The Dignitary"
      },
      "geometry": {
        "type": "Point",
        "coordinates": [-77.024231, 38.903248]
      }
    },
    {
      "type": "Feature",
      "properties": {
        "@id": "node/11148893606",
        "name": "Pow Pow",
        "addr:housenumber": "1250"
      },
      "geometry": {
        "type": "Point",
        "coordinates": [-77.029283, 38.901179]
      }
    },
    {
      "type": "Feature",
      "properties": {
        "@id": "node/11149146505",
        "name": "Chef Geoff's",
        "addr:housenumber": "2201"
      },
      "geometry": {
        "type": "Point",
        "coordinates": [-77.049062, 38.905423]
      }
    },
    {
      "type": "Feature",
      "properties": {
        "@id": "node/11149169405",
        "name": "Beacon"
      },
      "geometry": {
        "type": "Point",
        "coordinates": [-77.038169, 38.906903]
      }
    },
    {
      "type": "Feature",
      "properties": {
        "@id": "node/1115021850",
        "name": "Peet's Coffee",
        "addr:housenumber": "1275"
      },
      "geometry": {
        "type": "Point",
        "coordinates": [-77.005623, 38.906757]
      }
    },
    {
      "type": "Feature",
      "properties": {
        "@id": "node/11155075188",
        "name": "The DC Chi Pie",
        "addr:housenumber": "1121"
      },
      "geometry": {
        "type": "Point",
        "coordinates": [-77.023805, 38.905004]
      }
    },
    {
      "type": "Feature",
      "properties": {
        "@id": "node/11155075189",
        "name": "Brij",
        "addr:housenumber": "1123"
      },
      "geometry": {
        "type": "Point",
        "coordinates": [-77.023814, 38.905075]
      }
    },
    {
      "type": "Feature",
      "properties": {
        "@id": "node/11158849989",
        "name": "Oak Berry",
        "addr:housenumber": "1119"
      },
      "geometry": {
        "type": "Point",
        "coordinates": [-77.023814, 38.904915]
      }
    },
    {
      "type": "Feature",
      "properties": {
        "@id": "node/11159971794",
        "name": "Noodles on 11",
        "addr:housenumber": "1100"
      },
      "geometry": {
        "type": "Point",
        "coordinates": [-77.027278, 38.900619]
      }
    },
    {
      "type": "Feature",
      "properties": {
        "@id": "node/11159971795",
        "name": "Parlour Victoria",
        "addr:housenumber": "1011"
      },
      "geometry": {
        "type": "Point",
        "coordinates": [-77.026739, 38.902753]
      }
    },
    {
      "type": "Feature",
      "properties": {
        "@id": "node/11160753175",
        "name": "Crumbs & Whiskers",
        "addr:housenumber": "3109"
      },
      "geometry": {
        "type": "Point",
        "coordinates": [-77.061526, 38.905338]
      }
    },
    {
      "type": "Feature",
      "properties": {
        "@id": "node/11168134728",
        "name": "Jake's Tavern",
        "addr:housenumber": "1606"
      },
      "geometry": {
        "type": "Point",
        "coordinates": [-77.022123, 38.911439]
      }
    },
    {
      "type": "Feature",
      "properties": {
        "@id": "node/11168134729",
        "name": "Lalibela Ethiopian",
        "addr:housenumber": "1608"
      },
      "geometry": {
        "type": "Point",
        "coordinates": [-77.022144, 38.911496]
      }
    },
    {
      "type": "Feature",
      "properties": {
        "@id": "node/11168356786",
        "name": "Cloud Lounge",
        "addr:housenumber": "1919"
      },
      "geometry": {
        "type": "Point",
        "coordinates": [-77.023795, 38.916337]
      }
    },
    {
      "type": "Feature",
      "properties": {
        "@id": "node/11168356788",
        "name": "Italien kitchen",
        "addr:housenumber": "1010"
      },
      "geometry": {
        "type": "Point",
        "coordinates": [-77.02764, 38.916857]
      }
    },
    {
      "type": "Feature",
      "properties": {
        "@id": "node/11168356791",
        "name": "Turning Natural",
        "addr:housenumber": "1931"
      },
      "geometry": {
        "type": "Point",
        "coordinates": [-77.023822, 38.916496]
      }
    },
    {
      "type": "Feature",
      "properties": {
        "@id": "node/11168356792",
        "name": "Habesha Market & Restaurant",
        "addr:housenumber": "1919"
      },
      "geometry": {
        "type": "Point",
        "coordinates": [-77.023795, 38.916315]
      }
    },
    {
      "type": "Feature",
      "properties": {
        "@id": "node/11168356795",
        "name": "The Groove Lounge",
        "addr:housenumber": "1905"
      },
      "geometry": {
        "type": "Point",
        "coordinates": [-77.023741, 38.91593]
      }
    },
    {
      "type": "Feature",
      "properties": {
        "@id": "node/11168356798",
        "name": "Sound & Bar",
        "addr:housenumber": "1909"
      },
      "geometry": {
        "type": "Point",
        "coordinates": [-77.023787, 38.916048]
      }
    },
    {
      "type": "Feature",
      "properties": {
        "@id": "node/11168356799",
        "name": "Empire",
        "addr:housenumber": "1909"
      },
      "geometry": {
        "type": "Point",
        "coordinates": [-77.023765, 38.916049]
      }
    },
    {
      "type": "Feature",
      "properties": {
        "@id": "node/11182258420",
        "name": "Domino's",
        "addr:housenumber": "1300"
      },
      "geometry": {
        "type": "Point",
        "coordinates": [-77.03006, 38.903583]
      }
    },
    {
      "type": "Feature",
      "properties": {
        "@id": "node/11182392255",
        "name": "Umaya Izakaya",
        "addr:housenumber": "733"
      },
      "geometry": {
        "type": "Point",
        "coordinates": [-77.025785, 38.89895]
      }
    },
    {
      "type": "Feature",
      "properties": {
        "@id": "node/11182392257",
        "name": "grk",
        "addr:housenumber": "1000"
      },
      "geometry": {
        "type": "Point",
        "coordinates": [-77.026149, 38.896961]
      }
    },
    {
      "type": "Feature",
      "properties": {
        "@id": "node/11182392261",
        "name": "Chipotle",
        "addr:housenumber": "1001"
      },
      "geometry": {
        "type": "Point",
        "coordinates": [-77.026222, 38.895976]
      }
    },
    {
      "type": "Feature",
      "properties": {
        "@id": "node/11197056817",
        "name": "Tiki on 18th",
        "addr:housenumber": "2411"
      },
      "geometry": {
        "type": "Point",
        "coordinates": [-77.041861, 38.920856]
      }
    },
    {
      "type": "Feature",
      "properties": {
        "@id": "node/11198432280",
        "name": "Zumo Thai",
        "addr:housenumber": "815"
      },
      "geometry": {
        "type": "Point",
        "coordinates": [-77.021752, 38.900243]
      }
    },
    {
      "type": "Feature",
      "properties": {
        "@id": "node/11198432282",
        "name": "Smashburger",
        "addr:housenumber": "804"
      },
      "geometry": {
        "type": "Point",
        "coordinates": [-77.022105, 38.900082]
      }
    },
    {
      "type": "Feature",
      "properties": {
        "@id": "node/11198432283",
        "name": "Tony Cheng Mongolian Restaurant",
        "addr:housenumber": "619"
      },
      "geometry": {
        "type": "Point",
        "coordinates": [-77.020839, 38.899964]
      }
    },
    {
      "type": "Feature",
      "properties": {
        "@id": "node/11198438819",
        "name": "Bonkers' Chinese Burger",
        "addr:housenumber": "736"
      },
      "geometry": {
        "type": "Point",
        "coordinates": [-77.020125, 38.899363]
      }
    },
    {
      "type": "Feature",
      "properties": {
        "@id": "node/11198438820",
        "name": "Spice 6",
        "addr:housenumber": "740"
      },
      "geometry": {
        "type": "Point",
        "coordinates": [-77.020121, 38.899423]
      }
    },
    {
      "type": "Feature",
      "properties": {
        "@id": "node/11198438822",
        "name": "Deli by PHO 88",
        "addr:housenumber": "608"
      },
      "geometry": {
        "type": "Point",
        "coordinates": [-77.020501, 38.899666]
      }
    },
    {
      "type": "Feature",
      "properties": {
        "@id": "node/11198438823",
        "name": "PHO 88",
        "addr:housenumber": "607"
      },
      "geometry": {
        "type": "Point",
        "coordinates": [-77.020501, 38.899666]
      }
    },
    {
      "type": "Feature",
      "properties": {
        "@id": "node/11198438824",
        "name": "Kura Sushi",
        "addr:housenumber": "614"
      },
      "geometry": {
        "type": "Point",
        "coordinates": [-77.020657, 38.89967]
      }
    },
    {
      "type": "Feature",
      "properties": {
        "@id": "node/11198538758",
        "name": "Bulldog",
        "addr:housenumber": "713"
      },
      "geometry": {
        "type": "Point",
        "coordinates": [-77.022593, 38.899951]
      }
    },
    {
      "type": "Feature",
      "properties": {
        "@id": "node/11198538759",
        "name": "Wasai",
        "addr:housenumber": "716"
      },
      "geometry": {
        "type": "Point",
        "coordinates": [-77.022092, 38.899131]
      }
    },
    {
      "type": "Feature",
      "properties": {
        "@id": "node/11198538764",
        "name": "Chipotle",
        "addr:housenumber": "601"
      },
      "geometry": {
        "type": "Point",
        "coordinates": [-77.022106, 38.898917]
      }
    },
    {
      "type": "Feature",
      "properties": {
        "@id": "node/11198538765",
        "name": "90 Second Pizza",
        "addr:housenumber": "708"
      },
      "geometry": {
        "type": "Point",
        "coordinates": [-77.022102, 38.898856]
      }
    },
    {
      "type": "Feature",
      "properties": {
        "@id": "node/11198538766",
        "name": "Chick-fil-A"
      },
      "geometry": {
        "type": "Point",
        "coordinates": [-77.0221, 38.898696]
      }
    },
    {
      "type": "Feature",
      "properties": {
        "@id": "node/11198538767",
        "name": "Dos Toros Taqueria",
        "addr:housenumber": "700"
      },
      "geometry": {
        "type": "Point",
        "coordinates": [-77.022102, 38.898633]
      }
    },
    {
      "type": "Feature",
      "properties": {
        "@id": "node/11216057089",
        "name": "Poki DC",
        "addr:housenumber": "1399"
      },
      "geometry": {
        "type": "Point",
        "coordinates": [-77.031743, 38.899936]
      }
    },
    {
      "type": "Feature",
      "properties": {
        "@id": "node/11216057090",
        "name": "Gong Cha",
        "addr:housenumber": "1399"
      },
      "geometry": {
        "type": "Point",
        "coordinates": [-77.031746, 38.899883]
      }
    },
    {
      "type": "Feature",
      "properties": {
        "@id": "node/11216187328",
        "name": "Bluestone Lane Coffee"
      },
      "geometry": {
        "type": "Point",
        "coordinates": [-77.029883, 38.898109]
      }
    },
    {
      "type": "Feature",
      "properties": {
        "@id": "node/11216187330",
        "name": "Coffee Republic"
      },
      "geometry": {
        "type": "Point",
        "coordinates": [-77.029389, 38.897971]
      }
    },
    {
      "type": "Feature",
      "properties": {
        "@id": "node/11216187331",
        "name": "Panera Bread",
        "addr:housenumber": "601"
      },
      "geometry": {
        "type": "Point",
        "coordinates": [-77.029163, 38.89815]
      }
    },
    {
      "type": "Feature",
      "properties": {
        "@id": "node/11216187332",
        "name": "Jimmy John's",
        "addr:housenumber": "1208"
      },
      "geometry": {
        "type": "Point",
        "coordinates": [-77.028563, 38.898143]
      }
    },
    {
      "type": "Feature",
      "properties": {
        "@id": "node/11216187333",
        "name": "Rice Bar"
      },
      "geometry": {
        "type": "Point",
        "coordinates": [-77.028465, 38.898162]
      }
    },
    {
      "type": "Feature",
      "properties": {
        "@id": "node/11216270539",
        "name": "Urban Roast",
        "addr:housenumber": "916"
      },
      "geometry": {
        "type": "Point",
        "coordinates": [-77.024912, 38.89809]
      }
    },
    {
      "type": "Feature",
      "properties": {
        "@id": "node/11216270542",
        "name": "Nando's",
        "addr:housenumber": "836"
      },
      "geometry": {
        "type": "Point",
        "coordinates": [-77.023583, 38.897071]
      }
    },
    {
      "type": "Feature",
      "properties": {
        "@id": "node/11216270545",
        "name": "Smoothie King"
      },
      "geometry": {
        "type": "Point",
        "coordinates": [-77.021293, 38.898705]
      }
    },
    {
      "type": "Feature",
      "properties": {
        "@id": "node/11218232090",
        "name": "King Street Oyster Bar"
      },
      "geometry": {
        "type": "Point",
        "coordinates": [-77.007846, 38.905829]
      }
    },
    {
      "type": "Feature",
      "properties": {
        "@id": "node/11218574852",
        "name": "Mason's Famous Lobster Rolls",
        "addr:housenumber": "1303"
      },
      "geometry": {
        "type": "Point",
        "coordinates": [-77.043205, 38.90756]
      }
    },
    {
      "type": "Feature",
      "properties": {
        "@id": "node/11218574853",
        "name": "Toastique",
        "addr:housenumber": "1899"
      },
      "geometry": {
        "type": "Point",
        "coordinates": [-77.043203, 38.907399]
      }
    },
    {
      "type": "Feature",
      "properties": {
        "@id": "node/11218574855",
        "name": "Chipotle",
        "addr:housenumber": "1300"
      },
      "geometry": {
        "type": "Point",
        "coordinates": [-77.04247, 38.907477]
      }
    },
    {
      "type": "Feature",
      "properties": {
        "@id": "node/11218582491",
        "name": "Boogy & Peel",
        "addr:housenumber": "1"
      },
      "geometry": {
        "type": "Point",
        "coordinates": [-77.044507, 38.908852]
      }
    },
    {
      "type": "Feature",
      "properties": {
        "@id": "node/11219211058",
        "name": "Compass Coffee",
        "addr:housenumber": "1023"
      },
      "geometry": {
        "type": "Point",
        "coordinates": [-77.021739, 38.90375]
      }
    },
    {
      "type": "Feature",
      "properties": {
        "@id": "node/11220257450",
        "name": "Aunteaboba x Supreme Barbecue",
        "addr:housenumber": "2"
      },
      "geometry": {
        "type": "Point",
        "coordinates": [-77.008738, 38.910833]
      }
    },
    {
      "type": "Feature",
      "properties": {
        "@id": "node/11221520742",
        "name": "Bagels & Baguettes"
      },
      "geometry": {
        "type": "Point",
        "coordinates": [-77.025499, 38.901864]
      }
    },
    {
      "type": "Feature",
      "properties": {
        "@id": "node/11226824372",
        "name": "Zeke's Coffee",
        "addr:housenumber": "4602"
      },
      "geometry": {
        "type": "Point",
        "coordinates": [-77.032942, 38.946358]
      }
    },
    {
      "type": "Feature",
      "properties": {
        "@id": "node/11234957458",
        "name": "Flair restaurant & Lounge",
        "addr:housenumber": "2210"
      },
      "geometry": {
        "type": "Point",
        "coordinates": [-77.032183, 38.919587]
      }
    },
    {
      "type": "Feature",
      "properties": {
        "@id": "node/11234957469",
        "name": "Phonatics",
        "addr:housenumber": "2424"
      },
      "geometry": {
        "type": "Point",
        "coordinates": [-77.032103, 38.921205]
      }
    },
    {
      "type": "Feature",
      "properties": {
        "@id": "node/11234957471",
        "name": "Lucy Bar",
        "addr:housenumber": "1350"
      },
      "geometry": {
        "type": "Point",
        "coordinates": [-77.031689, 38.919994]
      }
    },
    {
      "type": "Feature",
      "properties": {
        "@id": "node/11247309205",
        "name": "Uno Más Modern Mexican Restaurant",
        "addr:housenumber": "3911"
      },
      "geometry": {
        "type": "Point",
        "coordinates": [-77.024541, 38.939131]
      }
    },
    {
      "type": "Feature",
      "properties": {
        "@id": "node/11265325019",
        "name": "Martha Dear",
        "addr:housenumber": "3110"
      },
      "geometry": {
        "type": "Point",
        "coordinates": [-77.037722, 38.929187]
      }
    },
    {
      "type": "Feature",
      "properties": {
        "@id": "node/11265325023",
        "name": "Il Supremo Italian",
        "addr:housenumber": "3209"
      },
      "geometry": {
        "type": "Point",
        "coordinates": [-77.038246, 38.931476]
      }
    },
    {
      "type": "Feature",
      "properties": {
        "@id": "node/11265544905",
        "name": "Don Julio"
      },
      "geometry": {
        "type": "Point",
        "coordinates": [-77.034565, 38.930817]
      }
    },
    {
      "type": "Feature",
      "properties": {
        "@id": "node/11265544907",
        "name": "Antojitos Ceci",
        "addr:housenumber": "1458"
      },
      "geometry": {
        "type": "Point",
        "coordinates": [-77.034543, 38.930739]
      }
    },
    {
      "type": "Feature",
      "properties": {
        "@id": "node/11265544912",
        "name": "El Pollo Sabroso",
        "addr:housenumber": "1434"
      },
      "geometry": {
        "type": "Point",
        "coordinates": [-77.034001, 38.93059]
      }
    },
    {
      "type": "Feature",
      "properties": {
        "@id": "node/11265544918",
        "name": "Kookoo",
        "addr:housenumber": "3310"
      },
      "geometry": {
        "type": "Point",
        "coordinates": [-77.032923, 38.930711]
      }
    },
    {
      "type": "Feature",
      "properties": {
        "@id": "node/11282589675",
        "name": "Tazza Cafe",
        "addr:housenumber": "600"
      },
      "geometry": {
        "type": "Point",
        "coordinates": [-77.055138, 38.897553]
      }
    },
    {
      "type": "Feature",
      "properties": {
        "@id": "node/11285104008",
        "name": "Earth Grocery & Cafe",
        "addr:housenumber": "1701"
      },
      "geometry": {
        "type": "Point",
        "coordinates": [-77.019694, 38.912764]
      }
    },
    {
      "type": "Feature",
      "properties": {
        "@id": "node/11285160608",
        "name": "The Great American Bistro",
        "addr:housenumber": "1545"
      },
      "geometry": {
        "type": "Point",
        "coordinates": [-77.016429, 38.910949]
      }
    },
    {
      "type": "Feature",
      "properties": {
        "@id": "node/11286073597",
        "name": "Himalayan Doko",
        "addr:housenumber": "1108"
      },
      "geometry": {
        "type": "Point",
        "coordinates": [-77.027543, 38.902256]
      }
    },
    {
      "type": "Feature",
      "properties": {
        "@id": "node/11289765028",
        "name": "Taylor Gourmet",
        "addr:housenumber": "1400"
      },
      "geometry": {
        "type": "Point",
        "coordinates": [-77.03241, 38.902259]
      }
    },
    {
      "type": "Feature",
      "properties": {
        "@id": "node/11296225897",
        "name": "Call Your Mother"
      },
      "geometry": {
        "type": "Point",
        "coordinates": [-77.034123, 38.909792]
      }
    },
    {
      "type": "Feature",
      "properties": {
        "@id": "node/11296225898",
        "name": "Pressed Juicery",
        "addr:housenumber": "1431"
      },
      "geometry": {
        "type": "Point",
        "coordinates": [-77.033196, 38.909781]
      }
    },
    {
      "type": "Feature",
      "properties": {
        "@id": "node/11298852049",
        "name": "Papa John's",
        "addr:housenumber": "924"
      },
      "geometry": {
        "type": "Point",
        "coordinates": [-77.019212, 38.902069]
      }
    },
    {
      "type": "Feature",
      "properties": {
        "@id": "node/11300297472",
        "name": "Sushi Snob"
      },
      "geometry": {
        "type": "Point",
        "coordinates": [-77.039661, 38.905781]
      }
    },
    {
      "type": "Feature",
      "properties": {
        "@id": "node/11303550788",
        "name": "Joe & The Juice",
        "addr:housenumber": "400"
      },
      "geometry": {
        "type": "Point",
        "coordinates": [-77.016602, 38.902317]
      }
    },
    {
      "type": "Feature",
      "properties": {
        "@id": "node/11318894707",
        "name": "West Wing Cafe"
      },
      "geometry": {
        "type": "Point",
        "coordinates": [-77.04509, 38.904649]
      }
    },
    {
      "type": "Feature",
      "properties": {
        "@id": "node/11327680624",
        "name": "1310 Kitchen & Bar",
        "addr:housenumber": "1310"
      },
      "geometry": {
        "type": "Point",
        "coordinates": [-77.063473, 38.907302]
      }
    },
    {
      "type": "Feature",
      "properties": {
        "@id": "node/11327854116",
        "name": "Masala Eatery",
        "addr:housenumber": "3206"
      },
      "geometry": {
        "type": "Point",
        "coordinates": [-77.063827, 38.90774]
      }
    },
    {
      "type": "Feature",
      "properties": {
        "@id": "node/11327854126",
        "name": "Pressed Juicery",
        "addr:housenumber": "1300"
      },
      "geometry": {
        "type": "Point",
        "coordinates": [-77.063292, 38.906966]
      }
    },
    {
      "type": "Feature",
      "properties": {
        "@id": "node/11327854130",
        "name": "Café Con Bagel",
        "addr:housenumber": "1332"
      },
      "geometry": {
        "type": "Point",
        "coordinates": [-77.063551, 38.90755]
      }
    },
    {
      "type": "Feature",
      "properties": {
        "@id": "node/11327854132",
        "name": "Donahue DC",
        "addr:housenumber": "1338"
      },
      "geometry": {
        "type": "Point",
        "coordinates": [-77.06362, 38.907631]
      }
    },
    {
      "type": "Feature",
      "properties": {
        "@id": "node/11327854133",
        "name": "Georgetown Seafood",
        "addr:housenumber": "1211"
      },
      "geometry": {
        "type": "Point",
        "coordinates": [-77.065045, 38.905528]
      }
    },
    {
      "type": "Feature",
      "properties": {
        "@id": "node/11327854139",
        "name": "Gong Cha",
        "addr:housenumber": "3277"
      },
      "geometry": {
        "type": "Point",
        "coordinates": [-77.065405, 38.905273]
      }
    },
    {
      "type": "Feature",
      "properties": {
        "@id": "node/11329577820",
        "name": "Officina Cafe"
      },
      "geometry": {
        "type": "Point",
        "coordinates": [-77.037518, 38.903914]
      }
    },
    {
      "type": "Feature",
      "properties": {
        "@id": "node/11333699754",
        "name": "Brown Bag",
        "addr:housenumber": "470"
      },
      "geometry": {
        "type": "Point",
        "coordinates": [-77.023755, 38.883984]
      }
    },
    {
      "type": "Feature",
      "properties": {
        "@id": "node/11333716918",
        "name": "Charleys Philly Steaks",
        "addr:housenumber": "429"
      },
      "geometry": {
        "type": "Point",
        "coordinates": [-77.024698, 38.883764]
      }
    },
    {
      "type": "Feature",
      "properties": {
        "@id": "node/11333718732",
        "name": "Auntie Anne's",
        "addr:housenumber": "429"
      },
      "geometry": {
        "type": "Point",
        "coordinates": [-77.024717, 38.883827]
      }
    },
    {
      "type": "Feature",
      "properties": {
        "@id": "node/11333728036",
        "name": "Panda Express",
        "addr:housenumber": "429"
      },
      "geometry": {
        "type": "Point",
        "coordinates": [-77.024917, 38.883847]
      }
    },
    {
      "type": "Feature",
      "properties": {
        "@id": "node/11333731103",
        "name": "Subway",
        "addr:housenumber": "429"
      },
      "geometry": {
        "type": "Point",
        "coordinates": [-77.024678, 38.883646]
      }
    },
    {
      "type": "Feature",
      "properties": {
        "@id": "node/11333748371",
        "name": "DC Dogs & Fries",
        "addr:housenumber": "429"
      },
      "geometry": {
        "type": "Point",
        "coordinates": [-77.024937, 38.883641]
      }
    },
    {
      "type": "Feature",
      "properties": {
        "@id": "node/11342018268",
        "name": "Tatte Bakery & Cafe",
        "addr:housenumber": "2129"
      },
      "geometry": {
        "type": "Point",
        "coordinates": [-77.03884, 38.901165]
      }
    },
    {
      "type": "Feature",
      "properties": {
        "@id": "node/11342281999",
        "name": "Noma Pizza",
        "addr:housenumber": "1306"
      },
      "geometry": {
        "type": "Point",
        "coordinates": [-77.009292, 38.90765]
      }
    },
    {
      "type": "Feature",
      "properties": {
        "@id": "node/11345449272",
        "name": "Nama",
        "addr:housenumber": "475"
      },
      "geometry": {
        "type": "Point",
        "coordinates": [-77.018307, 38.902765]
      }
    },
    {
      "type": "Feature",
      "properties": {
        "@id": "node/11345449273",
        "name": "Rasa",
        "addr:housenumber": "485"
      },
      "geometry": {
        "type": "Point",
        "coordinates": [-77.018443, 38.902772]
      }
    },
    {
      "type": "Feature",
      "properties": {
        "@id": "node/11345449274",
        "name": "The Little Beet"
      },
      "geometry": {
        "type": "Point",
        "coordinates": [-77.018546, 38.902746]
      }
    },
    {
      "type": "Feature",
      "properties": {
        "@id": "node/11358155283",
        "name": "Fireclay",
        "addr:housenumber": "515"
      },
      "geometry": {
        "type": "Point",
        "coordinates": [-77.032731, 38.896899]
      }
    },
    {
      "type": "Feature",
      "properties": {
        "@id": "node/11363089852",
        "name": "Pret A Manger"
      },
      "geometry": {
        "type": "Point",
        "coordinates": [-77.029405, 38.895983]
      }
    },
    {
      "type": "Feature",
      "properties": {
        "@id": "node/11367374472",
        "name": "Aladdin House of Kabob & Gyros"
      },
      "geometry": {
        "type": "Point",
        "coordinates": [-77.070315, 38.918503]
      }
    },
    {
      "type": "Feature",
      "properties": {
        "@id": "node/11367470787",
        "name": "Tony's Breakfast"
      },
      "geometry": {
        "type": "Point",
        "coordinates": [-76.985697, 38.899833]
      }
    },
    {
      "type": "Feature",
      "properties": {
        "@id": "node/11371659613",
        "name": "Sports & Social",
        "addr:housenumber": "1314"
      },
      "geometry": {
        "type": "Point",
        "coordinates": [-77.030586, 38.916834]
      }
    },
    {
      "type": "Feature",
      "properties": {
        "@id": "node/11380092465",
        "name": "Falafel Brothers"
      },
      "geometry": {
        "type": "Point",
        "coordinates": [-77.024156, 38.917518]
      }
    },
    {
      "type": "Feature",
      "properties": {
        "@id": "node/11382556901",
        "name": "Ruta",
        "addr:housenumber": "327"
      },
      "geometry": {
        "type": "Point",
        "coordinates": [-76.996373, 38.885379]
      }
    },
    {
      "type": "Feature",
      "properties": {
        "@id": "node/11384425356",
        "name": "Step-Childe Harold"
      },
      "geometry": {
        "type": "Point",
        "coordinates": [-77.04513, 38.91162]
      }
    },
    {
      "type": "Feature",
      "properties": {
        "@id": "node/11399450677",
        "name": "Minya's Pizza",
        "addr:housenumber": "1932"
      },
      "geometry": {
        "type": "Point",
        "coordinates": [-77.02416, 38.9165]
      }
    },
    {
      "type": "Feature",
      "properties": {
        "@id": "node/11404402475",
        "name": "Eat Well Juice Bar",
        "addr:housenumber": "2608"
      },
      "geometry": {
        "type": "Point",
        "coordinates": [-77.022739, 38.924483]
      }
    },
    {
      "type": "Feature",
      "properties": {
        "@id": "node/11404402478",
        "name": "UCB Live",
        "addr:housenumber": "3328"
      },
      "geometry": {
        "type": "Point",
        "coordinates": [-77.023854, 38.931793]
      }
    },
    {
      "type": "Feature",
      "properties": {
        "@id": "node/11404402482",
        "name": "Chuck's LLC",
        "addr:housenumber": "2718"
      },
      "geometry": {
        "type": "Point",
        "coordinates": [-77.022969, 38.925651]
      }
    },
    {
      "type": "Feature",
      "properties": {
        "@id": "node/11404402487",
        "name": "Lux Lounge DC"
      },
      "geometry": {
        "type": "Point",
        "coordinates": [-77.022902, 38.928278]
      }
    },
    {
      "type": "Feature",
      "properties": {
        "@id": "node/11404402491",
        "name": "Halal Wrist",
        "addr:housenumber": "3019"
      },
      "geometry": {
        "type": "Point",
        "coordinates": [-77.022974, 38.928764]
      }
    },
    {
      "type": "Feature",
      "properties": {
        "@id": "node/11420726320",
        "name": "Succotash Prime Washington DC",
        "addr:housenumber": "915"
      },
      "geometry": {
        "type": "Point",
        "coordinates": [-77.024741, 38.897527]
      }
    },
    {
      "type": "Feature",
      "properties": {
        "@id": "node/11428002163",
        "name": "Licht",
        "addr:housenumber": "1520"
      },
      "geometry": {
        "type": "Point",
        "coordinates": [-77.035444, 38.916808]
      }
    },
    {
      "type": "Feature",
      "properties": {
        "@id": "node/11432849820",
        "name": "Porchetta District Sandwiches & Co."
      },
      "geometry": {
        "type": "Point",
        "coordinates": [-77.068489, 38.905213]
      }
    },
    {
      "type": "Feature",
      "properties": {
        "@id": "node/11446243010",
        "name": "Chipotle",
        "addr:housenumber": "2000"
      },
      "geometry": {
        "type": "Point",
        "coordinates": [-77.045258, 38.900534]
      }
    },
    {
      "type": "Feature",
      "properties": {
        "@id": "node/11466122570",
        "name": "Auntie Anne's"
      },
      "geometry": {
        "type": "Point",
        "coordinates": [-77.006657, 38.898084]
      }
    },
    {
      "type": "Feature",
      "properties": {
        "@id": "node/11466157830",
        "name": "Jersey Mike's Subs"
      },
      "geometry": {
        "type": "Point",
        "coordinates": [-77.006242, 38.897804]
      }
    },
    {
      "type": "Feature",
      "properties": {
        "@id": "node/11466157831",
        "name": "Chipotle",
        "addr:housenumber": "40"
      },
      "geometry": {
        "type": "Point",
        "coordinates": [-77.005926, 38.897681]
      }
    },
    {
      "type": "Feature",
      "properties": {
        "@id": "node/11466157832",
        "name": "Chick-fil-A",
        "addr:housenumber": "50"
      },
      "geometry": {
        "type": "Point",
        "coordinates": [-77.005846, 38.897616]
      }
    },
    {
      "type": "Feature",
      "properties": {
        "@id": "node/11466206148",
        "name": "The Halal Guys"
      },
      "geometry": {
        "type": "Point",
        "coordinates": [-77.006549, 38.897571]
      }
    },
    {
      "type": "Feature",
      "properties": {
        "@id": "node/11466218596",
        "name": "Taco Bell",
        "addr:housenumber": "50"
      },
      "geometry": {
        "type": "Point",
        "coordinates": [-77.006727, 38.897888]
      }
    },
    {
      "type": "Feature",
      "properties": {
        "@id": "node/11466218597",
        "name": "Charleys Philly Steaks"
      },
      "geometry": {
        "type": "Point",
        "coordinates": [-77.006623, 38.89787]
      }
    },
    {
      "type": "Feature",
      "properties": {
        "@id": "node/11481120238",
        "name": "King Street Oyster Bar",
        "addr:housenumber": "7"
      },
      "geometry": {
        "type": "Point",
        "coordinates": [-77.077621, 38.941009]
      }
    },
    {
      "type": "Feature",
      "properties": {
        "@id": "node/11483568539",
        "name": "Rice Bar"
      },
      "geometry": {
        "type": "Point",
        "coordinates": [-77.020662, 38.886014]
      }
    },
    {
      "type": "Feature",
      "properties": {
        "@id": "node/11489684712",
        "name": "Z-Burger",
        "addr:housenumber": "500"
      },
      "geometry": {
        "type": "Point",
        "coordinates": [-77.011968, 38.896667]
      }
    },
    {
      "type": "Feature",
      "properties": {
        "@id": "node/11495410369",
        "name": "Republic Cantina",
        "addr:housenumber": "43"
      },
      "geometry": {
        "type": "Point",
        "coordinates": [-77.010868, 38.907425]
      }
    },
    {
      "type": "Feature",
      "properties": {
        "@id": "node/11495428277",
        "name": "Atlas Brew Works",
        "addr:housenumber": "1201"
      },
      "geometry": {
        "type": "Point",
        "coordinates": [-77.007635, 38.875283]
      }
    },
    {
      "type": "Feature",
      "properties": {
        "@id": "node/11506905538",
        "name": "Smoothie King"
      },
      "geometry": {
        "type": "Point",
        "coordinates": [-77.032187, 38.916772]
      }
    },
    {
      "type": "Feature",
      "properties": {
        "@id": "node/11533263744",
        "name": "Manna",
        "addr:housenumber": "400"
      },
      "geometry": {
        "type": "Point",
        "coordinates": [-77.016501, 38.884574]
      }
    },
    {
      "type": "Feature",
      "properties": {
        "@id": "node/11535106509",
        "name": "Air",
        "addr:housenumber": "2473"
      },
      "geometry": {
        "type": "Point",
        "coordinates": [-77.042303, 38.922324]
      }
    },
    {
      "type": "Feature",
      "properties": {
        "@id": "node/11583035404",
        "name": "Absolute Noodle & Sushi Bar",
        "addr:housenumber": "772"
      },
      "geometry": {
        "type": "Point",
        "coordinates": [-77.019094, 38.899107]
      }
    },
    {
      "type": "Feature",
      "properties": {
        "@id": "node/11583132475",
        "name": "Sharetea",
        "addr:housenumber": "519"
      },
      "geometry": {
        "type": "Point",
        "coordinates": [-77.019619, 38.899939]
      }
    },
    {
      "type": "Feature",
      "properties": {
        "@id": "node/11585502353",
        "name": "Certo!",
        "addr:housenumber": "2121"
      },
      "geometry": {
        "type": "Point",
        "coordinates": [-77.047156, 38.909771]
      }
    },
    {
      "type": "Feature",
      "properties": {
        "@id": "node/11585502354",
        "name": "Spot Of Tea",
        "addr:housenumber": "2101"
      },
      "geometry": {
        "type": "Point",
        "coordinates": [-77.046859, 38.909761]
      }
    },
    {
      "type": "Feature",
      "properties": {
        "@id": "node/11629913831",
        "name": "VUE Rooftop",
        "addr:housenumber": "515"
      },
      "geometry": {
        "type": "Point",
        "coordinates": [-77.033393, 38.896906]
      }
    },
    {
      "type": "Feature",
      "properties": {
        "@id": "node/11639104051",
        "name": "Pho79",
        "addr:housenumber": "201"
      },
      "geometry": {
        "type": "Point",
        "coordinates": [-77.003025, 38.894649]
      }
    },
    {
      "type": "Feature",
      "properties": {
        "@id": "node/11639134939",
        "name": "Pupatella",
        "addr:housenumber": "301"
      },
      "geometry": {
        "type": "Point",
        "coordinates": [-77.001837, 38.894249]
      }
    },
    {
      "type": "Feature",
      "properties": {
        "@id": "node/11639134940",
        "name": "Buffalo & Bergen",
        "addr:housenumber": "240"
      },
      "geometry": {
        "type": "Point",
        "coordinates": [-77.002212, 38.895075]
      }
    },
    {
      "type": "Feature",
      "properties": {
        "@id": "node/11639170017",
        "name": "Café Fili"
      },
      "geometry": {
        "type": "Point",
        "coordinates": [-77.00332, 38.899072]
      }
    },
    {
      "type": "Feature",
      "properties": {
        "@id": "node/11660860804",
        "name": "Mama Chepa",
        "addr:housenumber": "5018"
      },
      "geometry": {
        "type": "Point",
        "coordinates": [-77.01232, 38.951504]
      }
    },
    {
      "type": "Feature",
      "properties": {
        "@id": "node/11660908473",
        "name": "The Hut",
        "addr:housenumber": "3657"
      },
      "geometry": {
        "type": "Point",
        "coordinates": [-77.024084, 38.936106]
      }
    },
    {
      "type": "Feature",
      "properties": {
        "@id": "node/11661538768",
        "name": "Della Barba Pizza",
        "addr:housenumber": "1382"
      },
      "geometry": {
        "type": "Point",
        "coordinates": [-76.985719, 38.890022]
      }
    },
    {
      "type": "Feature",
      "properties": {
        "@id": "node/11661677969",
        "name": "Duffy's Irish Pub",
        "addr:housenumber": "1901"
      },
      "geometry": {
        "type": "Point",
        "coordinates": [-76.976938, 38.884891]
      }
    },
    {
      "type": "Feature",
      "properties": {
        "@id": "node/11661677970",
        "name": "Sala Thai Cuisine",
        "addr:housenumber": "1901"
      },
      "geometry": {
        "type": "Point",
        "coordinates": [-76.976939, 38.88498]
      }
    },
    {
      "type": "Feature",
      "properties": {
        "@id": "node/11685784477",
        "name": "Greco",
        "addr:housenumber": "1335"
      },
      "geometry": {
        "type": "Point",
        "coordinates": [-77.063239, 38.907515]
      }
    },
    {
      "type": "Feature",
      "properties": {
        "@id": "node/11714997038",
        "name": "MXDC",
        "addr:housenumber": "1610"
      },
      "geometry": {
        "type": "Point",
        "coordinates": [-77.032215, 38.911559]
      }
    },
    {
      "type": "Feature",
      "properties": {
        "@id": "node/11715200076",
        "name": "Gueny Cafe & Market",
        "addr:housenumber": "5320"
      },
      "geometry": {
        "type": "Point",
        "coordinates": [-77.028013, 38.954789]
      }
    },
    {
      "type": "Feature",
      "properties": {
        "@id": "node/11715238327",
        "name": "Tipsy Scoop",
        "addr:housenumber": "675"
      },
      "geometry": {
        "type": "Point",
        "coordinates": [-77.02145, 38.90102]
      }
    },
    {
      "type": "Feature",
      "properties": {
        "@id": "node/11717009772",
        "name": "Dos Toros Taqueria",
        "addr:housenumber": "1350"
      },
      "geometry": {
        "type": "Point",
        "coordinates": [-77.043054, 38.908483]
      }
    },
    {
      "type": "Feature",
      "properties": {
        "@id": "node/11725771826",
        "name": "Little Chicken",
        "addr:housenumber": "11"
      },
      "geometry": {
        "type": "Point",
        "coordinates": [-77.023734, 38.879071]
      }
    },
    {
      "type": "Feature",
      "properties": {
        "@id": "node/11726163613",
        "name": "Starbucks",
        "addr:housenumber": "311"
      },
      "geometry": {
        "type": "Point",
        "coordinates": [-77.001143, 38.907106]
      }
    },
    {
      "type": "Feature",
      "properties": {
        "@id": "node/11727400437",
        "name": "Han Palace",
        "addr:housenumber": "1728"
      },
      "geometry": {
        "type": "Point",
        "coordinates": [-77.067239, 38.914437]
      }
    },
    {
      "type": "Feature",
      "properties": {
        "@id": "node/11727469597",
        "name": "Han Palace",
        "addr:housenumber": "522"
      },
      "geometry": {
        "type": "Point",
        "coordinates": [-76.994765, 38.881905]
      }
    },
    {
      "type": "Feature",
      "properties": {
        "@id": "node/11727860467",
        "name": "Mèo Maison",
        "addr:housenumber": "1336"
      },
      "geometry": {
        "type": "Point",
        "coordinates": [-77.063572, 38.907589]
      }
    },
    {
      "type": "Feature",
      "properties": {
        "@id": "node/11728069669",
        "name": "Jacob’s Coffee House",
        "addr:housenumber": "401"
      },
      "geometry": {
        "type": "Point",
        "coordinates": [-76.994756, 38.894905]
      }
    },
    {
      "type": "Feature",
      "properties": {
        "@id": "node/11735013019",
        "name": "Kyojin Sushi",
        "addr:housenumber": "3315"
      },
      "geometry": {
        "type": "Point",
        "coordinates": [-77.066609, 38.904798]
      }
    },
    {
      "type": "Feature",
      "properties": {
        "@id": "node/11735045851",
        "name": "Voodoo",
        "addr:housenumber": "1334"
      },
      "geometry": {
        "type": "Point",
        "coordinates": [-77.030996, 38.916847]
      }
    },
    {
      "type": "Feature",
      "properties": {
        "@id": "node/11739762549",
        "name": "Hi-Lawn",
        "addr:housenumber": "1309"
      },
      "geometry": {
        "type": "Point",
        "coordinates": [-76.997448, 38.908583]
      }
    },
    {
      "type": "Feature",
      "properties": {
        "@id": "node/11741861376",
        "name": "STK Steakhouse",
        "addr:housenumber": "901"
      },
      "geometry": {
        "type": "Point",
        "coordinates": [-77.025624, 38.903744]
      }
    },
    {
      "type": "Feature",
      "properties": {
        "@id": "node/11746667415",
        "name": "Z-Burger",
        "addr:housenumber": "1400"
      },
      "geometry": {
        "type": "Point",
        "coordinates": [-77.033463, 38.928574]
      }
    },
    {
      "type": "Feature",
      "properties": {
        "@id": "node/11761054599",
        "name": "The Roost",
        "addr:housenumber": "1401"
      },
      "geometry": {
        "type": "Point",
        "coordinates": [-76.985239, 38.879913]
      }
    },
    {
      "type": "Feature",
      "properties": {
        "@id": "node/11766302017",
        "name": "Astro Beer Hall",
        "addr:housenumber": "1306"
      },
      "geometry": {
        "type": "Point",
        "coordinates": [-77.030287, 38.898144]
      }
    },
    {
      "type": "Feature",
      "properties": {
        "@id": "node/11766458610",
        "name": "Planta Queen",
        "addr:housenumber": "1200"
      },
      "geometry": {
        "type": "Point",
        "coordinates": [-77.047477, 38.905821]
      }
    },
    {
      "type": "Feature",
      "properties": {
        "@id": "node/11769092455",
        "name": "Estuary",
        "addr:housenumber": "950"
      },
      "geometry": {
        "type": "Point",
        "coordinates": [-77.025789, 38.901172]
      }
    },
    {
      "type": "Feature",
      "properties": {
        "@id": "node/11778682276",
        "name": "El Presidente",
        "addr:housenumber": "1255"
      },
      "geometry": {
        "type": "Point",
        "coordinates": [-77.000815, 38.908421]
      }
    },
    {
      "type": "Feature",
      "properties": {
        "@id": "node/11782823685",
        "name": "Moon Rabbit",
        "addr:housenumber": "927"
      },
      "geometry": {
        "type": "Point",
        "coordinates": [-77.025244, 38.897529]
      }
    },
    {
      "type": "Feature",
      "properties": {
        "@id": "node/11783509876",
        "name": "Daru"
      },
      "geometry": {
        "type": "Point",
        "coordinates": [-76.983835, 38.899658]
      }
    },
    {
      "type": "Feature",
      "properties": {
        "@id": "node/11784671821",
        "name": "Bistro du Jour",
        "addr:housenumber": "20"
      },
      "geometry": {
        "type": "Point",
        "coordinates": [-77.011009, 38.897938]
      }
    },
    {
      "type": "Feature",
      "properties": {
        "@id": "node/11785201374",
        "name": "Pho House"
      },
      "geometry": {
        "type": "Point",
        "coordinates": [-77.021364, 38.915879]
      }
    },
    {
      "type": "Feature",
      "properties": {
        "@id": "node/11785201376",
        "name": "Los Cinco Tacos",
        "addr:housenumber": "711"
      },
      "geometry": {
        "type": "Point",
        "coordinates": [-77.022509, 38.916687]
      }
    },
    {
      "type": "Feature",
      "properties": {
        "@id": "node/11793733667",
        "name": "Beresovsky’s Deli",
        "addr:housenumber": "1201"
      },
      "geometry": {
        "type": "Point",
        "coordinates": [-77.007633, 38.87489]
      }
    },
    {
      "type": "Feature",
      "properties": {
        "@id": "node/11800041465",
        "name": "Bootheel Southern Catering",
        "addr:housenumber": "3001"
      },
      "geometry": {
        "type": "Point",
        "coordinates": [-77.051585, 38.931715]
      }
    },
    {
      "type": "Feature",
      "properties": {
        "@id": "node/11810009353",
        "name": "Szechuan House",
        "addr:housenumber": "515"
      },
      "geometry": {
        "type": "Point",
        "coordinates": [-76.995398, 38.882229]
      }
    },
    {
      "type": "Feature",
      "properties": {
        "@id": "node/11810049475",
        "name": "Andy's Pizza"
      },
      "geometry": {
        "type": "Point",
        "coordinates": [-77.062604, 38.904484]
      }
    },
    {
      "type": "Feature",
      "properties": {
        "@id": "node/11813744467",
        "name": "For Five Coffee Roasters"
      },
      "geometry": {
        "type": "Point",
        "coordinates": [-77.006209, 38.876671]
      }
    },
    {
      "type": "Feature",
      "properties": {
        "@id": "node/11813795797",
        "name": "Al’s Famous Delicatessen"
      },
      "geometry": {
        "type": "Point",
        "coordinates": [-76.995171, 38.877966]
      }
    },
    {
      "type": "Feature",
      "properties": {
        "@id": "node/11813806174",
        "name": "Torai",
        "addr:housenumber": "751"
      },
      "geometry": {
        "type": "Point",
        "coordinates": [-76.995182, 38.879555]
      }
    },
    {
      "type": "Feature",
      "properties": {
        "@id": "node/11819651795",
        "name": "Juice Extractions"
      },
      "geometry": {
        "type": "Point",
        "coordinates": [-76.991171, 38.932833]
      }
    },
    {
      "type": "Feature",
      "properties": {
        "@id": "node/11825048204",
        "name": "Momo's Cafe"
      },
      "geometry": {
        "type": "Point",
        "coordinates": [-77.096466, 38.916844]
      }
    },
    {
      "type": "Feature",
      "properties": {
        "@id": "node/11825093392",
        "name": "O'Kabul"
      },
      "geometry": {
        "type": "Point",
        "coordinates": [-77.012349, 38.915899]
      }
    },
    {
      "type": "Feature",
      "properties": {
        "@id": "node/11825093698",
        "name": "2Fifty",
        "addr:housenumber": "414"
      },
      "geometry": {
        "type": "Point",
        "coordinates": [-77.016935, 38.902316]
      }
    },
    {
      "type": "Feature",
      "properties": {
        "@id": "node/11828471367",
        "name": "Childhood Cafe"
      },
      "geometry": {
        "type": "Point",
        "coordinates": [-77.038714, 38.916632]
      }
    },
    {
      "type": "Feature",
      "properties": {
        "@id": "node/11829015570",
        "name": "Sweetgreen",
        "addr:housenumber": "1304"
      },
      "geometry": {
        "type": "Point",
        "coordinates": [-76.999173, 38.909407]
      }
    },
    {
      "type": "Feature",
      "properties": {
        "@id": "node/11834291069",
        "name": "Maman",
        "addr:housenumber": "141"
      },
      "geometry": {
        "type": "Point",
        "coordinates": [-77.004559, 38.874454]
      }
    },
    {
      "type": "Feature",
      "properties": {
        "@id": "node/11839328844",
        "name": "Llamabar Cafe",
        "addr:housenumber": "1"
      },
      "geometry": {
        "type": "Point",
        "coordinates": [-77.008375, 38.87628]
      }
    },
    {
      "type": "Feature",
      "properties": {
        "@id": "node/11839332565",
        "name": "Momo Chicken & Grill"
      },
      "geometry": {
        "type": "Point",
        "coordinates": [-77.01779, 38.878191]
      }
    },
    {
      "type": "Feature",
      "properties": {
        "@id": "node/11844522253",
        "name": "Starbucks",
        "addr:housenumber": "1155"
      },
      "geometry": {
        "type": "Point",
        "coordinates": [-77.027663, 38.976004]
      }
    },
    {
      "type": "Feature",
      "properties": {
        "@id": "node/11848289630",
        "name": "Wiseguy Pizza"
      },
      "geometry": {
        "type": "Point",
        "coordinates": [-77.043232, 38.905982]
      }
    },
    {
      "type": "Feature",
      "properties": {
        "@id": "node/11856301996",
        "name": "SpiceX",
        "addr:housenumber": "429"
      },
      "geometry": {
        "type": "Point",
        "coordinates": [-77.025164, 38.884006]
      }
    },
    {
      "type": "Feature",
      "properties": {
        "@id": "node/11873052732",
        "name": "Saladworks",
        "addr:housenumber": "320"
      },
      "geometry": {
        "type": "Point",
        "coordinates": [-77.001661, 38.907911]
      }
    },
    {
      "type": "Feature",
      "properties": {
        "@id": "node/11877095722",
        "name": "Pho Viet USA",
        "addr:housenumber": "333"
      },
      "geometry": {
        "type": "Point",
        "coordinates": [-77.000866, 38.900081]
      }
    },
    {
      "type": "Feature",
      "properties": {
        "@id": "node/11877513689",
        "name": "Ama"
      },
      "geometry": {
        "type": "Point",
        "coordinates": [-77.005617, 38.880054]
      }
    },
    {
      "type": "Feature",
      "properties": {
        "@id": "node/11877513690",
        "name": "Smoke & Mirrors"
      },
      "geometry": {
        "type": "Point",
        "coordinates": [-77.00585, 38.880391]
      }
    },
    {
      "type": "Feature",
      "properties": {
        "@id": "node/11877559282",
        "name": "Any Day Now",
        "addr:housenumber": "2"
      },
      "geometry": {
        "type": "Point",
        "coordinates": [-77.008656, 38.879464]
      }
    },
    {
      "type": "Feature",
      "properties": {
        "@id": "node/11882339273",
        "name": "Casa Majanos",
        "addr:housenumber": "1439"
      },
      "geometry": {
        "type": "Point",
        "coordinates": [-77.026815, 38.909497]
      }
    },
    {
      "type": "Feature",
      "properties": {
        "@id": "node/11895544255",
        "name": "The Eastern",
        "addr:housenumber": "360"
      },
      "geometry": {
        "type": "Point",
        "coordinates": [-76.995958, 38.885274]
      }
    },
    {
      "type": "Feature",
      "properties": {
        "@id": "node/11895544256",
        "name": "The Duck & The Peach",
        "addr:housenumber": "300"
      },
      "geometry": {
        "type": "Point",
        "coordinates": [-76.995945, 38.885726]
      }
    },
    {
      "type": "Feature",
      "properties": {
        "@id": "node/11898499178",
        "name": "Raising Cane's"
      },
      "geometry": {
        "type": "Point",
        "coordinates": [-77.005209, 38.897739]
      }
    },
    {
      "type": "Feature",
      "properties": {
        "@id": "node/11901865685",
        "name": "Café Alice"
      },
      "geometry": {
        "type": "Point",
        "coordinates": [-77.012421, 38.895513]
      }
    },
    {
      "type": "Feature",
      "properties": {
        "@id": "node/11907251711",
        "name": "Grace Street Coffee"
      },
      "geometry": {
        "type": "Point",
        "coordinates": [-77.064816, 38.903172]
      }
    },
    {
      "type": "Feature",
      "properties": {
        "@id": "node/11907601834",
        "name": "Sushi by Bou",
        "addr:housenumber": "550"
      },
      "geometry": {
        "type": "Point",
        "coordinates": [-77.019612, 38.883758]
      }
    },
    {
      "type": "Feature",
      "properties": {
        "@id": "node/11907943283",
        "name": "Tamashaa",
        "addr:housenumber": "3115"
      },
      "geometry": {
        "type": "Point",
        "coordinates": [-77.032491, 38.929855]
      }
    },
    {
      "type": "Feature",
      "properties": {
        "@id": "node/11908333939",
        "name": "Nice & Easy",
        "addr:housenumber": "1124"
      },
      "geometry": {
        "type": "Point",
        "coordinates": [-77.003044, 38.904442]
      }
    },
    {
      "type": "Feature",
      "properties": {
        "@id": "node/11909616084",
        "name": "Dunkin'",
        "addr:housenumber": "2201"
      },
      "geometry": {
        "type": "Point",
        "coordinates": [-77.047609, 38.89479]
      }
    },
    {
      "type": "Feature",
      "properties": {
        "@id": "node/11922744710",
        "name": "Good Company Doughnuts & Cafe",
        "addr:housenumber": "1000"
      },
      "geometry": {
        "type": "Point",
        "coordinates": [-77.017312, 38.878476]
      }
    },
    {
      "type": "Feature",
      "properties": {
        "@id": "node/11922926643",
        "name": "Baan Mae",
        "addr:housenumber": "1604"
      },
      "geometry": {
        "type": "Point",
        "coordinates": [-77.022123, 38.911393]
      }
    },
    {
      "type": "Feature",
      "properties": {
        "@id": "node/11923819368",
        "name": "Domino's",
        "addr:housenumber": "6239"
      },
      "geometry": {
        "type": "Point",
        "coordinates": [-77.027325, 38.965988]
      }
    },
    {
      "type": "Feature",
      "properties": {
        "@id": "node/11923907969",
        "name": "Panera Bread",
        "addr:housenumber": "800"
      },
      "geometry": {
        "type": "Point",
        "coordinates": [-77.047157, 38.899984]
      }
    },
    {
      "type": "Feature",
      "properties": {
        "@id": "node/11923907970",
        "name": "Panera Bread",
        "addr:housenumber": "2001"
      },
      "geometry": {
        "type": "Point",
        "coordinates": [-77.045123, 38.904104]
      }
    },
    {
      "type": "Feature",
      "properties": {
        "@id": "node/11923907971",
        "name": "Domino's",
        "addr:housenumber": "900"
      },
      "geometry": {
        "type": "Point",
        "coordinates": [-76.993423, 38.876663]
      }
    },
    {
      "type": "Feature",
      "properties": {
        "@id": "node/11923907972",
        "name": "Dunkin'",
        "addr:housenumber": "101"
      },
      "geometry": {
        "type": "Point",
        "coordinates": [-77.004156, 38.887106]
      }
    },
    {
      "type": "Feature",
      "properties": {
        "@id": "node/11923907973",
        "name": "Dunkin'",
        "addr:housenumber": "50"
      },
      "geometry": {
        "type": "Point",
        "coordinates": [-77.008501, 38.886975]
      }
    },
    {
      "type": "Feature",
      "properties": {
        "@id": "node/11923907974",
        "name": "Dunkin'",
        "addr:housenumber": "1400"
      },
      "geometry": {
        "type": "Point",
        "coordinates": [-77.029974, 38.888125]
      }
    },
    {
      "type": "Feature",
      "properties": {
        "@id": "node/11923907975",
        "name": "Panera Bread",
        "addr:housenumber": "1300"
      },
      "geometry": {
        "type": "Point",
        "coordinates": [-77.030757, 38.893732]
      }
    },
    {
      "type": "Feature",
      "properties": {
        "@id": "node/11923907976",
        "name": "Popeyes",
        "addr:housenumber": "1060"
      },
      "geometry": {
        "type": "Point",
        "coordinates": [-76.99277, 38.919632]
      }
    },
    {
      "type": "Feature",
      "properties": {
        "@id": "node/11923907978",
        "name": "Dunkin'",
        "addr:housenumber": "2420"
      },
      "geometry": {
        "type": "Point",
        "coordinates": [-76.971113, 38.917751]
      }
    },
    {
      "type": "Feature",
      "properties": {
        "@id": "node/11923907979",
        "name": "Popeyes",
        "addr:housenumber": "3200"
      },
      "geometry": {
        "type": "Point",
        "coordinates": [-76.959065, 38.930229]
      }
    },
    {
      "type": "Feature",
      "properties": {
        "@id": "node/11923907980",
        "name": "Five Guys",
        "addr:housenumber": "2490"
      },
      "geometry": {
        "type": "Point",
        "coordinates": [-76.952453, 38.921904]
      }
    },
    {
      "type": "Feature",
      "properties": {
        "@id": "node/11923907981",
        "name": "Popeyes",
        "addr:housenumber": "4020"
      },
      "geometry": {
        "type": "Point",
        "coordinates": [-76.948698, 38.896083]
      }
    },
    {
      "type": "Feature",
      "properties": {
        "@id": "node/11923907982",
        "name": "Chipotle",
        "addr:housenumber": "1571"
      },
      "geometry": {
        "type": "Point",
        "coordinates": [-76.980366, 38.846465]
      }
    },
    {
      "type": "Feature",
      "properties": {
        "@id": "node/11933842596",
        "name": "Z-Burger",
        "addr:housenumber": "641"
      },
      "geometry": {
        "type": "Point",
        "coordinates": [-77.021616, 38.894204]
      }
    },
    {
      "type": "Feature",
      "properties": {
        "@id": "node/11933925852",
        "name": "Maman",
        "addr:housenumber": "1300"
      },
      "geometry": {
        "type": "Point",
        "coordinates": [-76.999233, 38.909302]
      }
    },
    {
      "type": "Feature",
      "properties": {
        "@id": "node/11936108969",
        "name": "Sweet Home Cafe",
        "addr:housenumber": "1400"
      },
      "geometry": {
        "type": "Point",
        "coordinates": [-77.032525, 38.89093]
      }
    },
    {
      "type": "Feature",
      "properties": {
        "@id": "node/11948239841",
        "name": "Pure Green"
      },
      "geometry": {
        "type": "Point",
        "coordinates": [-77.045177, 38.912133]
      }
    },
    {
      "type": "Feature",
      "properties": {
        "@id": "node/11948331239",
        "name": "Rosemary Bistro Cafe",
        "addr:housenumber": "5010"
      },
      "geometry": {
        "type": "Point",
        "coordinates": [-77.070158, 38.955115]
      }
    },
    {
      "type": "Feature",
      "properties": {
        "@id": "node/11956139622",
        "name": "Playa Bowls",
        "addr:housenumber": "143"
      },
      "geometry": {
        "type": "Point",
        "coordinates": [-77.004379, 38.874458]
      }
    },
    {
      "type": "Feature",
      "properties": {
        "@id": "node/11958851355",
        "name": "Ko Japanese Dining"
      },
      "geometry": {
        "type": "Point",
        "coordinates": [-77.045198, 38.911643]
      }
    },
    {
      "type": "Feature",
      "properties": {
        "@id": "node/11961719598",
        "name": "Motown Square",
        "addr:housenumber": "1819"
      },
      "geometry": {
        "type": "Point",
        "coordinates": [-77.021729, 38.91477]
      }
    },
    {
      "type": "Feature",
      "properties": {
        "@id": "node/11961719600",
        "name": "Doro Soul Food",
        "addr:housenumber": "1819"
      },
      "geometry": {
        "type": "Point",
        "coordinates": [-77.02169, 38.914771]
      }
    },
    {
      "type": "Feature",
      "properties": {
        "@id": "node/11963650630",
        "name": "Little Sesame"
      },
      "geometry": {
        "type": "Point",
        "coordinates": [-77.042807, 38.903564]
      }
    },
    {
      "type": "Feature",
      "properties": {
        "@id": "node/11963655633",
        "name": "Roasting Plant Coffee"
      },
      "geometry": {
        "type": "Point",
        "coordinates": [-77.043698, 38.904018]
      }
    },
    {
      "type": "Feature",
      "properties": {
        "@id": "node/11963722019",
        "name": "Lima Twist",
        "addr:housenumber": "1411"
      },
      "geometry": {
        "type": "Point",
        "coordinates": [-77.032543, 38.902784]
      }
    },
    {
      "type": "Feature",
      "properties": {
        "@id": "node/11963729565",
        "name": "Mazi",
        "addr:housenumber": "1518"
      },
      "geometry": {
        "type": "Point",
        "coordinates": [-77.035416, 38.902269]
      }
    },
    {
      "type": "Feature",
      "properties": {
        "@id": "node/11963735864",
        "name": "Smoothie King"
      },
      "geometry": {
        "type": "Point",
        "coordinates": [-77.038921, 38.902764]
      }
    },
    {
      "type": "Feature",
      "properties": {
        "@id": "node/11975746228",
        "name": "SUNdeVICH",
        "addr:housenumber": "601"
      },
      "geometry": {
        "type": "Point",
        "coordinates": [-77.011614, 38.898137]
      }
    },
    {
      "type": "Feature",
      "properties": {
        "@id": "node/11981103303",
        "name": "Darvish Kitchen",
        "addr:housenumber": "1141"
      },
      "geometry": {
        "type": "Point",
        "coordinates": [-77.040543, 38.905159]
      }
    },
    {
      "type": "Feature",
      "properties": {
        "@id": "node/11986134812",
        "name": "Garden Café"
      },
      "geometry": {
        "type": "Point",
        "coordinates": [-77.01988, 38.891279]
      }
    },
    {
      "type": "Feature",
      "properties": {
        "@id": "node/11988005565",
        "name": "On The Rocks"
      },